[{"Lon":2.3488,"Lat":48.8534,"Name":"Париж"},{"Lon":76.95,"Lat":43.25,"Name":"Алматы"},{"Lon":129.7331,"Lat":62.0339,"Name":"Якутск"},{"Lon":37.22,"Lat":35.02,"Name":"Владивосток"},{"Lon":90.0,"Lat":53.3333,"Name":"Хакасия"},{"Lon":37.8833,"Lat":55.6778,"Name":"Люберцы"},{"Lon":37.8833,"Lat":55.6778,"Name":"Люберцы"},{"Lon":37.8833,"Lat":55.6778,"Name":"Люберцы"},{"Lon":37.22,"Lat":35.02,"Name":"Владивосток"},{"Lon":37.22,"Lat":35.02,"Name":"Владивосток"},{"Lon":37.22,"Lat":35.02,"Name":"Владивосток"},{"Lon":37.22,"Lat":35.02,"Name":"Владивосток"},{"Lon":37.22,"Lat":35.02,"Name":"Владивосток"},{"Lon":37.22,"Lat":35.02,"Name":"Владивосток"},{"Lon":37.22,"Lat":35.02,"Name":"Владивосток"},{"Lon":37.22,"Lat":35.02,"Name":"Владивосток"},{"Lon":37.22,"Lat":35.02,"Name":"Владивосток"},{"Lon":37.22,"Lat":35.02,"Name":"Владивосток"},{"Lon":37.22,"Lat":35.02,"Name":"Владивосток"},{"Lon":37.22,"Lat":35.02,"Name":"Владивосток"},{"Lon":37.22,"Lat":35.02,"Name":"Владивосток"},{"Lon":37.22,"Lat":35.02,"Name":"Владивосток"},{"Lon":37.22,"Lat":35.02,"Name":"Владивосток"},{"Lon":37.22,"Lat":35.02,"Name":"Владивосток"},{"Lon":37.22,"Lat":35.02,"Name":"Владивосток"},{"Lon":37.22,"Lat":35.02,"Name":"Владивосток"},{"Lon":37.22,"Lat":35.02,"Name":"Владивосток"},{"Lon":37.22,"Lat":35.02,"Name":"Владивосток"}]